[
  {
    "id": 1,
    "name": "REWE City",
    "category": "Supermarket",
    "address": "Alexanderplatz 3, 10178 Berlin",
    "sundayHours": "12:00 - 20:00",
    "lat": 52.5219,
    "lng": 13.4132
  },
  {
    "id": 2,
    "name": "Späti am Boxhagener",
    "category": "Späti",
    "address": "Boxhagener Str. 42, 10245 Berlin",
    "sundayHours": "10:00 - 22:00",
    "lat": 52.5095,
    "lng": 13.4585
  },
  {
    "id": 3,
    "name": "Apotheke am Zoo",
    "category": "Pharmacy",
    "address": "Joachimstaler Str. 2, 10719 Berlin",
    "sundayHours": "09:00 - 21:00",
    "lat": 52.5057,
    "lng": 13.3324
  },
  {
    "id": 4,
    "name": "Edeka Hauptbahnhof",
    "category": "Supermarket",
    "address": "Europaplatz 1, 10557 Berlin",
    "sundayHours": "08:00 - 22:00",
    "lat": 52.5251,
    "lng": 13.3694
  },
  {
    "id": 5,
    "name": "Kiosk Prenzlauer Berg",
    "category": "Späti",
    "address": "Prenzlauer Allee 87, 10405 Berlin",
    "sundayHours": "09:00 - 23:00",
    "lat": 52.5347,
    "lng": 13.4189
  },
  {
    "id": 6,
    "name": "Stern Apotheke",
    "category": "Pharmacy",
    "address": "Friedrichstr. 100, 10117 Berlin",
    "sundayHours": "10:00 - 18:00",
    "lat": 52.5244,
    "lng": 13.3879
  },
  {
    "id": 7,
    "name": "REWE To Go Potsdamer Platz",
    "category": "Supermarket",
    "address": "Potsdamer Platz 1, 10785 Berlin",
    "sundayHours": "07:00 - 23:00",
    "lat": 52.5096,
    "lng": 13.3761
  },
  {
    "id": 8,
    "name": "Spätkauf Kreuzberg",
    "category": "Späti",
    "address": "Oranienstr. 45, 10969 Berlin",
    "sundayHours": "00:00 - 24:00",
    "lat": 52.5008,
    "lng": 13.4229
  },
  {
    "id": 9,
    "name": "Notdienst Apotheke Mitte",
    "category": "Pharmacy",
    "address": "Rosenthaler Str. 46, 10178 Berlin",
    "sundayHours": "08:00 - 20:00",
    "lat": 52.5268,
    "lng": 13.4013
  },
  {
    "id": 10,
    "name": "Aldi Ostbahnhof",
    "category": "Supermarket",
    "address": "Am Ostbahnhof 9, 10243 Berlin",
    "sundayHours": "13:00 - 18:00",
    "lat": 52.5102,
    "lng": 13.4348
  }
]
